[
  {
    "id": "cafes-ona-coffee-house-68-wollongong-street-fyshwick-act-2603",
    "name": "ONA Coffee House",
    "placeTypeId": "cafe",
    "appId": "au",
    "lat": -35.3238537,
    "lon": 149.1800462,
    "regionId": "act",
    "regionLabel": "Australian Capital Territory",
    "locationLabel": "68 Wollongong Street, Fyshwick ACT 2603",
    "websiteUrl": "https://www.onacoffeehouse.com.au/",
    "solarMode": "facade",
    "status": "unavailable",
    "foodOffer": {
      "category": "full-menu",
      "confidence": "confirmed"
    }
  },
  {
    "id": "cafes-reuben-hills-61-albion-street-surry-hills-nsw-2010",
    "name": "Reuben Hills",
    "placeTypeId": "cafe",
    "appId": "au",
    "lat": -33.8829006,
    "lon": 151.2109902,
    "regionId": "nsw",
    "regionLabel": "New South Wales",
    "locationLabel": "61 Albion Street, Surry Hills NSW 2010",
    "websiteUrl": "https://www.reubenhills.com.au/",
    "solarMode": "facade",
    "status": "unavailable",
    "foodOffer": {
      "category": "full-menu",
      "confidence": "confirmed"
    }
  },
  {
    "id": "cafes-higher-ground-650-little-bourke-street-melbourne-vic-3000",
    "name": "Higher Ground",
    "placeTypeId": "cafe",
    "appId": "au",
    "lat": -37.8158967,
    "lon": 144.9531574,
    "regionId": "vic",
    "regionLabel": "Victoria",
    "locationLabel": "650 Little Bourke Street, Melbourne VIC 3000",
    "websiteUrl": "https://highergroundmelbourne.com.au/",
    "solarMode": "facade",
    "status": "unavailable",
    "foodOffer": {
      "category": "full-menu",
      "confidence": "confirmed"
    }
  },
  {
    "id": "cafes-the-kettle-black-50-albert-road-south-melbourne-vic-3205",
    "name": "The Kettle Black",
    "placeTypeId": "cafe",
    "appId": "au",
    "lat": -37.8341251,
    "lon": 144.9713427,
    "regionId": "vic",
    "regionLabel": "Victoria",
    "locationLabel": "50 Albert Road, South Melbourne VIC 3205",
    "websiteUrl": "https://thekettleblack.com.au/",
    "solarMode": "facade",
    "status": "unavailable"
  },
  {
    "id": "cafes-industry-beans-newstead-18-proe-street-newstead-qld-4006",
    "name": "Industry Beans Newstead",
    "placeTypeId": "cafe",
    "appId": "au",
    "lat": -27.4539782,
    "lon": 153.0418049,
    "regionId": "qld",
    "regionLabel": "Queensland",
    "locationLabel": "18 Proe Street, Newstead QLD 4006",
    "websiteUrl": "https://industrybeans.com/pages/visit",
    "solarMode": "facade",
    "status": "unavailable"
  },
  {
    "id": "cafes-market-lane-coffee-brunswick-sydney-road-383-sydney-road-brunswick-vic-3056",
    "name": "Market Lane Coffee - Brunswick Sydney Road",
    "placeTypeId": "cafe",
    "appId": "au",
    "lat": -37.7683591,
    "lon": 144.9617647,
    "regionId": "vic",
    "regionLabel": "Victoria",
    "locationLabel": "383 Sydney Road, Brunswick VIC 3056",
    "websiteUrl": "https://marketlane.com.au/pages/locations",
    "solarMode": "facade",
    "status": "unavailable"
  },
  {
    "id": "cafes-ona-sydney-58-smith-street-marrickville-nsw-2204",
    "name": "ONA Sydney",
    "placeTypeId": "cafe",
    "appId": "au",
    "lat": -33.9073322,
    "lon": 151.1674246,
    "regionId": "nsw",
    "regionLabel": "New South Wales",
    "locationLabel": "58 Smith Street, Marrickville NSW 2204",
    "websiteUrl": "https://onacoffee.com.au/pages/locations",
    "solarMode": "facade",
    "status": "unavailable"
  },
  {
    "id": "cafes-everyday-coffee-collingwood-36-38-sackville-street-collingwood-vic-3066",
    "name": "Everyday Coffee Collingwood",
    "placeTypeId": "cafe",
    "appId": "au",
    "lat": -37.7982461,
    "lon": 144.9858872,
    "regionId": "vic",
    "regionLabel": "Victoria",
    "locationLabel": "36-38 Sackville Street, Collingwood VIC 3066",
    "websiteUrl": "https://everyday-coffee.com/pages/locations",
    "solarMode": "facade",
    "status": "unavailable"
  },
  {
    "id": "cafes-code-black-coffee-north-melbourne-119-howard-street-north-melbourne-vic-3051",
    "name": "Code Black Coffee North Melbourne",
    "placeTypeId": "cafe",
    "appId": "au",
    "lat": -37.8042375,
    "lon": 144.9536691,
    "regionId": "vic",
    "regionLabel": "Victoria",
    "locationLabel": "119 Howard Street, North Melbourne VIC 3051",
    "websiteUrl": "https://codeblackcoffee.com.au/",
    "solarMode": "facade",
    "status": "unavailable"
  },
  {
    "id": "cafes-bellissimo-coffee-fortitude-valley-30-wandoo-street-fortitude-valley-qld-4006",
    "name": "Bellissimo Coffee Fortitude Valley",
    "placeTypeId": "cafe",
    "appId": "au",
    "lat": -27.4557035,
    "lon": 153.0405397,
    "regionId": "qld",
    "regionLabel": "Queensland",
    "locationLabel": "30 Wandoo Street, Fortitude Valley QLD 4006",
    "websiteUrl": "https://www.bellissimocoffee.com.au/our-venues/",
    "solarMode": "facade",
    "status": "unavailable"
  },
  {
    "id": "cafes-exchange-coffee-12-18-vardon-avenue-adelaide-sa-5000",
    "name": "Exchange Coffee",
    "placeTypeId": "cafe",
    "appId": "au",
    "lat": -34.9228204,
    "lon": 138.609816,
    "regionId": "sa",
    "regionLabel": "South Australia",
    "locationLabel": "12-18 Vardon Avenue, Adelaide SA 5000",
    "websiteUrl": "https://exchangecoffee.com.au/",
    "solarMode": "facade",
    "status": "unavailable"
  },
  {
    "id": "cafes-peter-rabbit-cafe-234-244-hindley-street-adelaide-sa-5000",
    "name": "Peter Rabbit Cafe",
    "placeTypeId": "cafe",
    "appId": "au",
    "lat": -34.9232196,
    "lon": 138.5902291,
    "regionId": "sa",
    "regionLabel": "South Australia",
    "locationLabel": "234-244 Hindley Street, Adelaide SA 5000",
    "websiteUrl": "https://www.peterabbit.com.au/",
    "solarMode": "facade",
    "status": "unavailable"
  },
  {
    "id": "cafes-hylin-178-railway-parade-west-leederville-wa-6007",
    "name": "Hylin",
    "placeTypeId": "cafe",
    "appId": "au",
    "lat": -31.9422441,
    "lon": 115.83798,
    "regionId": "wa",
    "regionLabel": "Western Australia",
    "locationLabel": "178 Railway Parade, West Leederville WA 6007",
    "websiteUrl": "https://hylincafe.com/",
    "solarMode": "facade",
    "status": "unavailable"
  }
]
